{"type": "FeatureCollection", "features": [{"type": "Feature", "geometry": {"type": "Point", "coordinates": [80.1994692, 13.0887983]}, "properties": {"addr:district": "Chennai", "addr:full": "New No.4, Old No.1620-A, 16Th Main Road, Anna Nagar", "addr:postcode": "600040", "addr:state": "Tamil Nadu", "amenity": "hospital", "healthcare": "hospital", "name": "Sri Devi Speciality Hospial", "source": "OpenGovernmentData"}}, {"type": "Feature", "geometry": {"type": "Point", "coordinates": [80.1991661, 13.0868667]}, "properties": {"addr:district": "Chennai", "addr:full": "2/1911, J-Block, 15 Th Main Road, Anna Nagar", "addr:postcode": "600040", "addr:state": "Tamil Nadu", "amenity": "hospital", "healthcare": "hospital", "name": "I K Hospital", "source": "OpenGovernmentData"}}, {"type": "Feature", "geometry": {"type": "Point", "coordinates": [80.1870589, 13.0859961]}, "properties": {"addr:city": "Chennai", "addr:district": "Chennai", "addr:full": "4 - A, Dr.J.Jayalalitha Nagar, Mogappair", "addr:housenumber": "4-A", "addr:postcode": "600037", "addr:state": "Tamil Nadu", "addr:suburb": "Mogappair East", "amenity": "hospital", "email": "icvddoctors@mmm.org.in", "emergency": "yes", "healthcare": "hospital", "name": "Madras Medical Mission Hospital - Institute of Cardio Vascular Diseases", "operator:type": "private", "phone": "044 2656 5991", "source": "OpenGovernmentData", "website": "http://www.madrasmedicalmission.org/", "wheelchair": "yes", "wikidata": "Q14956788", "wikipedia": "en:Madras Medical Mission"}}, {"type": "Feature", "geometry": {"type": "Point", "coordinates": [80.1885088, 13.090139]}, "properties": {"addr:housenumber": "4C", "addr:postcode": "600101", "addr:street": "TVS AVENUE", "amenity": "pharmacy", "name:en": "Sree Thirumal Pharmacy", "opening_hours": "Mo-Su 09:00-14:00, 17:00-23:00", "operator": "Nakeeran", "phone": "04426544609"}}, {"type": "Feature", "geometry": {"type": "Point", "coordinates": [80.1983714, 13.0860731]}, "properties": {"addr:housenumber": "18", "addr:street": "J.J. Complex, Jawaharlal Nehru Road, Thirumangalam", "amenity": "clinic", "healthcare": "clinic", "healthcare:speciality": "endocrinology", "name": "Dr. Ram's Diabetes & Endocrine Clinic", "opening_hours": "Mo, We, Fr 18:00-21:00", "phone": "9333193331"}}, {"type": "Feature", "geometry": {"type": "Point", "coordinates": [80.1983243, 13.0856328]}, "properties": {"addr:housenumber": "58", "addr:street": "J.J. Complex, Jawaharlal Nehru Road, Thirumangalam", "amenity": "clinic", "name": "Heart Care Clinic", "opening_hours": "Mo-Sa 18:00-21:00, 09:00-18:00; Su 10:00-12:00"}}, {"type": "Feature", "geometry": {"type": "Point", "coordinates": [80.199355, 13.0852419]}, "properties": {"amenity": "pharmacy", "healthcare": "pharmacy", "name": "Sathya Pharmacy"}}, {"type": "Feature", "geometry": {"type": "Point", "coordinates": [80.1925899, 13.0857391]}, "properties": {"addr:city": "Chennai", "addr:housenumber": "5/2", "addr:street": "Padikuppam Road", "addr:suburb": "Anna Nagar West", "amenity": "pharmacy", "healthcare": "pharmacy", "name": "A.R.R. Pharmacy", "phone": "9444629833"}}, {"type": "Feature", "geometry": {"type": "Point", "coordinates": [80.1924583, 13.085025]}, "properties": {"addr:city": "Chennai", "addr:street": "Padikuppam Road", "addr:suburb": "Anna Nagar West", "amenity": "pharmacy", "brand": "MedPlus", "brand:wikidata": "Q65684234", "healthcare": "pharmacy", "name": "MedPlus"}}, {"type": "Feature", "geometry": {"type": "Point", "coordinates": [80.1924194, 13.0847424]}, "properties": {"addr:housenumber": "100", "addr:street": "Padikuppam Road, Kamarajar Nagar, Anna Nagar West, Chennai", "amenity": "pharmacy", "description": "Free home delivery available", "name": "Madha Medicals", "phone": "9176154429"}}, {"type": "Feature", "geometry": {"type": "Point", "coordinates": [80.192537, 13.0855051]}, "properties": {"amenity": "clinic", "healthcare": "clinic", "name": "Anbu Dental Implant & Maxillofacial Clinic", "opening_hours": "Mo-Su 09:30-13:30, 16:30-21:30", "phone": "9940753151"}}, {"type": "Feature", "geometry": {"type": "Point", "coordinates": [80.1974921, 13.0873798]}, "properties": {"amenity": "pharmacy", "healthcare": "pharmacy", "name": "Coopertive Medicals"}}, {"type": "Feature", "geometry": {"type": "Point", "coordinates": [80.1920654, 13.0833415]}, "properties": {"addr:street": "Padikuppam road, Kamarajar Nagar, Thirumangalam, Anna Nagar West, Chennai", "amenity": "pharmacy", "name": "Anbu Medicals"}}, {"type": "Feature", "geometry": {"type": "Point", "coordinates": [80.1970993, 13.0874373]}, "properties": {"addr:housenumber": "1/16", "addr:street": "Welcome colony, Anna nagar west", "amenity": "pharmacy", "name": "Jayalakshmi Medicals"}}, {"type": "Feature", "geometry": {"type": "Point", "coordinates": [80.1876882, 13.0844879]}, "properties": {"addr:district": "Tiruvallur", "addr:full": "1/234, Mmda, Mogappair East", "addr:postcode": "600037", "addr:state": "Tamil Nadu", "amenity": "clinic", "healthcare": "clinic", "name": "Raj Nursing Home, Tiruvallur", "source": "OpenGovernmentData"}}, {"type": "Feature", "geometry": {"type": "Point", "coordinates": [80.1877418, 13.0896987]}, "properties": {"addr:district": "Chennai", "addr:full": "959, Tvs Colony Annanagar West Extension", "addr:postcode": "600101", "addr:state": "Tamil Nadu", "amenity": "hospital", "name": "SKS Hospital, Chennai", "source": "OpenGovernmentData"}}, {"type": "Feature", "geometry": {"type": "Point", "coordinates": [80.1989896, 13.0882891]}, "properties": {"addr:district": "Chennai", "addr:full": "Jawaharlal Nehru Rd, Bharathi Colony, Bharathi Nagar, Anna Nagar", "addr:postcode": "600040", "addr:state": "Tamil Nadu", "amenity": "hospital", "healthcare": "hospital", "name": "Prakash Hospial", "source": "OpenGovernmentData"}}, {"type": "Feature", "geometry": {"type": "Point", "coordinates": [80.1857322, 13.0875243]}, "properties": {"addr:city": "Chennai", "addr:district": "Chennai", "addr:full": "R 30 C, Ambattur Industrial Estate Road, Mogappair", "addr:housenumber": "R 30 C", "addr:postcode": "600101", "addr:state": "Tamil Nadu", "addr:street": "Ambattur Industrial Estate Road", "addr:subdistrict": "Mogappair", "alt_name": "International Centre For Cardio Thoracic and Vascular Diseases", "amenity": "hospital", "building": "yes", "building:levels": "3", "contact:mobile": "9790840976", "contact:phone": "04442017575;04426564224", "email": "translab@frontierlifeline.com", "fax": "044 26565150", "healthcare": "hospital", "name": "Frontier Lifeline Hospital", "operator:type": "private", "phone": "044 4201 7575", "source": "OpenGovernmentData", "website": "https://www.frontierlifeline.com/", "wheelchair": "yes", "wikipedia": "en:K. M. Cherian"}}]}